[{"No":63,"Direction":"DOWN","BusStop_Name":"ဘူတာကြီး(ဂိတ်ဖျား)","Road_Name":"ကွမ်းခြံလမ်း","Township":"မင်္ဂလာတောင်ညွန့်မြို့နယ်","Lat":16.7816,"Long":96.1614},
    {"No":64,"Direction":"DOWN","BusStop_Name":"ဖဆပလ","Road_Name":"ဂျိုးဖြူလမ်း","Township":"မင်္ဂလာတောင်ညွန့်မြို့နယ်","Lat":16.7856,"Long":96.1594},
    {"No":65,"Direction":"DOWN","BusStop_Name":"သမ္မတရုပ်ရှင်ရုံ","Road_Name":"အလံပြဘုရားလမ်း","Township":"ဒဂုံမြို့နယ်","Lat":16.7824,"Long":96.1589},
    {"No":66,"Direction":"DOWN","BusStop_Name":"SuleSquare","Road_Name":"ဆူးလေဘုရားလမ်း","Township":"ကျောက်တံတားမြို့နယ်","Lat":16.7778,"Long":96.1586},
    {"No":67,"Direction":"DOWN","BusStop_Name":"ကုန်ဈေးတန်း","Road_Name":"အနော်ရထာလမ်း","Township":"လသာမြို့နယ်","Lat":16.7771,"Long":96.1549},
    {"No":68,"Direction":"DOWN","BusStop_Name":"လသာ","Road_Name":"အနော်ရထာလမ်း","Township":"လသာမြို့နယ်","Lat":16.7772,"Long":96.1521},
    {"No":69,"Direction":"DOWN","BusStop_Name":"ဆေးရုံကြီး(အရေးပေါ်)","Road_Name":"လမ်းမတော်လမ်း","Township":"လမ်းမတော်မြို့နယ်","Lat":16.7795,"Long":96.1501},
    {"No":70,"Direction":"DOWN","BusStop_Name":"ဆေး(၁)","Road_Name":"လမ်းမတော်လမ်း","Township":"လမ်းမတော်မြို့နယ်","Lat":16.7819,"Long":96.1463},
    {"No":71,"Direction":"DOWN","BusStop_Name":"စိန်ဂျွန်း","Road_Name":"ပြည်လမ်း","Township":"လမ်းမတော်မြို့နယ်","Lat":16.7830,"Long":96.1436},
    {"No":72,"Direction":"DOWN","BusStop_Name":"ပဲခူးကလပ်","Road_Name":"ပြည်လမ်း","Township":"ဒဂုံမြို့နယ်","Lat":16.7865,"Long":96.1425},
    {"No":73,"Direction":"DOWN","BusStop_Name":"ဟဲ(လ်)ပင်","Road_Name":"ပြည်လမ်း","Township":"ဒဂုံမြို့နယ်","Lat":16.816722,"Long":96.1301},
    {"No":74,"Direction":"DOWN","BusStop_Name":"မြေနီကုန်း(ပြည်သူ့ရင်ပြင်)","Road_Name":"ပြည်လမ်း","Township":"စမ်းချောင်းမြို့နယ်","Lat":16.804097,"Long":96.136791},
    {"No":75,"Direction":"DOWN","BusStop_Name":"မဟာမြိုင်","Road_Name":"ပြည်လမ်း","Township":"စမ်းချောင်းမြို့နယ်","Lat":16.806304,"Long":96.155194},
    {"No":76,"Direction":"DOWN","BusStop_Name":"ဟံသာဝတီအဝိုင်း","Road_Name":"ပြည်လမ်း","Township":"ကမာရွတ်မြို့နယ်","Lat":16.813547,"Long":96.169637},
    {"No":77,"Direction":"DOWN","BusStop_Name":"စိုက်ပျိုးရေး","Road_Name":"ပြည်လမ်း","Township":"ကမာရွတ်မြို့နယ်","Lat":16.816722,"Long":96.1301},
    {"No":78,"Direction":"DOWN","BusStop_Name":"လှည်းတန်း","Road_Name":"ပြည်လမ်း","Township":"ကမာရွတ်မြို့နယ်","Lat":16.804097,"Long":96.136791},
    {"No":79,"Direction":"DOWN","BusStop_Name":"စံရိပ်ငြိမ်","Road_Name":"ပြည်လမ်း","Township":"ကမာရွတ်မြို့နယ်","Lat":16.806304,"Long":96.155194},
    {"No":80,"Direction":"DOWN","BusStop_Name":"ဆင်ရေတွင်း","Road_Name":"ပြည်လမ်း","Township":"ကမာရွတ်မြို့နယ်","Lat":16.813547,"Long":96.169637},
    {"No":81,"Direction":"DOWN","BusStop_Name":"ဘူတာရုံလမ်း","Road_Name":"ပြည်လမ်း","Township":"လှိုင်မြို့နယ်","Lat":16.816722,"Long":96.1301},
    {"No":82,"Direction":"DOWN","BusStop_Name":"သုခ","Road_Name":"ပြည်လမ်း","Township":"လှိုင်မြို့နယ်","Lat":16.804097,"Long":96.136791},
    {"No":83,"Direction":"DOWN","BusStop_Name":"သံလမ်း","Road_Name":"ပြည်လမ်း","Township":"လှိုင်မြို့နယ်","Lat":16.806304,"Long":96.155194},
    {"No":84,"Direction":"DOWN","BusStop_Name":"ဘာတာ","Road_Name":"ပြည်လမ်း","Township":"လှိုင်မြို့နယ်","Lat":16.813547,"Long":96.169637},
    {"No":85,"Direction":"DOWN","BusStop_Name":"အုတ်ကျင်း","Road_Name":"ပြည်လမ်း","Township":"လှိုင်မြို့နယ်","Lat":16.816722,"Long":96.1301},
    {"No":86,"Direction":"DOWN","BusStop_Name":"ဘုရားလမ်း","Road_Name":"ပြည်လမ်း","Township":"လှိုင်မြို့နယ်","Lat":16.804097,"Long":96.136791},
    {"No":87,"Direction":"DOWN","BusStop_Name":"သမိုင်းလမ်းဆုံ","Road_Name":"ပြည်လမ်း","Township":"မရမ်းကုန်းမြို့နယ်","Lat":16.806304,"Long":96.155194},
    {"No":88,"Direction":"DOWN","BusStop_Name":"ကုလားကျောင်း","Road_Name":"ပြည်လမ်း","Township":"မရမ်းကုန်းမြို့နယ်","Lat":16.813547,"Long":96.169637},
    {"No":89,"Direction":"DOWN","BusStop_Name":"ခဝဲခြံ","Road_Name":"ပြည်လမ်း","Township":"မရမ်းကုန်းမြို့နယ်","Lat":16.816722,"Long":96.1301},
    {"No":90,"Direction":"DOWN","BusStop_Name":"ဘီပီအိုင်","Road_Name":"ပြည်လမ်း","Township":"အင်းစိန်မြို့နယ်","Lat":16.804097,"Long":96.136791},
    {"No":91,"Direction":"DOWN","BusStop_Name":"ကြို့ကုန်း","Road_Name":"ပြည်လမ်း","Township":"အင်းစိန်မြို့နယ်","Lat":16.806304,"Long":96.155194},
    {"No":92,"Direction":"DOWN","BusStop_Name":"ဘီအိုစီ","Road_Name":"ပြည်လမ်း","Township":"အင်းစိန်မြို့နယ်","Lat":16.813547,"Long":96.169637},
    {"No":93,"Direction":"DOWN","BusStop_Name":"အင်းစိန်ဆေးရုံ","Road_Name":"အောက်မင်္ဂလာဒုံလမ်း","Township":"အင်းစိန်မြို့နယ်","Lat":16.816722,"Long":96.1301},
    {"No":94,"Direction":"DOWN","BusStop_Name":"မညက","Road_Name":"အောက်မင်္ဂလာဒုံလမ်း","Township":"အင်းစိန်မြို့နယ်","Lat":16.804097,"Long":96.136791},
    {"No":95,"Direction":"DOWN","BusStop_Name":"ဟိုက်ပတ်","Road_Name":"အောက်မင်္ဂလာဒုံလမ်း","Township":"အင်းစိန်မြို့နယ်","Lat":16.806304,"Long":96.155194},
    {"No":96,"Direction":"DOWN","BusStop_Name":"ဘိုကုန်း","Road_Name":"အောက်မင်္ဂလာဒုံလမ်း","Township":"အင်းစိန်မြို့နယ်","Lat":16.813547,"Long":96.169637},
    {"No":97,"Direction":"DOWN","BusStop_Name":"သရက်တော","Road_Name":"အောက်မင်္ဂလာဒုံလမ်း","Township":"အင်းစိန်မြို့နယ်","Lat":16.816722,"Long":96.1301},
    {"No":98,"Direction":"DOWN","BusStop_Name":"ပြည်တော်သာ","Road_Name":"အောက်မင်္ဂလာဒုံလမ်း","Township":"အင်းစိန်မြို့နယ်","Lat":16.804097,"Long":96.136791},
    {"No":99,"Direction":"DOWN","BusStop_Name":"ဂျပန်လမ်း","Road_Name":"အောက်မင်္ဂလာဒုံလမ်း","Township":"အင်းစိန်မြို့နယ်","Lat":16.806304,"Long":96.155194},
    {"No":100,"Direction":"DOWN","BusStop_Name":"ဖော့ကန်ဈေး","Road_Name":"အောက်မင်္ဂလာဒုံလမ်း","Township":"အင်းစိန်မြို့နယ်","Lat":16.813547,"Long":96.169637},
    {"No":101,"Direction":"DOWN","BusStop_Name":"စောင်(၂)","Road_Name":"အောက်မင်္ဂလာဒုံလမ်း","Township":"အင်းစိန်မြို့နယ်","Lat":16.816722,"Long":96.1301},
    {"No":102,"Direction":"DOWN","BusStop_Name":"၁ဂိတ်","Road_Name":"အောက်မင်္ဂလာဒုံလမ်း","Township":"အင်းစိန်မြို့နယ်","Lat":16.804097,"Long":96.136791},
    {"No":103,"Direction":"DOWN","BusStop_Name":"ကျောင်းဂိတ်","Road_Name":"အောက်မင်္ဂလာဒုံလမ်း","Township":"အင်းစိန်မြို့နယ်","Lat":16.806304,"Long":96.155194},
    {"No":104,"Direction":"DOWN","BusStop_Name":"အောင်ဆန်းဈေး","Road_Name":"အောက်မင်္ဂလာဒုံလမ်း","Township":"အင်းစိန်မြို့နယ်","Lat":16.813547,"Long":96.169637},
    {"No":105,"Direction":"DOWN","BusStop_Name":"ရွာသစ်","Road_Name":"အောက်မင်္ဂလာဒုံလမ်း","Township":"အင်းစိန်မြို့နယ်","Lat":16.816722,"Long":96.1301},
    {"No":106,"Direction":"DOWN","BusStop_Name":"ဘိုခြံ","Road_Name":"အောက်မင်္ဂလာဒုံလမ်း","Township":"အင်းစိန်မြို့နယ်","Lat":16.804097,"Long":96.136791},
    {"No":107,"Direction":"DOWN","BusStop_Name":"တညင်းကုန်းလမ်းဆုံ","Road_Name":"အမှတ်(၄)လမ်း","Township":"ရွှေပြည်သာမြို့နယ်","Lat":16.806304,"Long":96.155194},
    {"No":108,"Direction":"DOWN","BusStop_Name":"ဆောက်လုပ်ရေး","Road_Name":"အမှတ်(၄)လမ်း","Township":"ရွှေပြည်သာမြို့နယ်","Lat":16.813547,"Long":96.169637},
    {"No":109,"Direction":"DOWN","BusStop_Name":"ဘုန်းကြီးကျောင်း","Road_Name":"အမှတ်(၄)လမ်း","Township":"ရွှေပြည်သာမြို့နယ်","Lat":16.816722,"Long":96.1301},
    {"No":110,"Direction":"DOWN","BusStop_Name":"မြင်းလှည်းဂိတ်","Road_Name":"အမှတ်(၄)လမ်း","Township":"ရွှေပြည်သာမြို့နယ်","Lat":16.804097,"Long":96.136791},
    {"No":111,"Direction":"DOWN","BusStop_Name":"ကန်သာယာ","Road_Name":"အမှတ်(၄)လမ်း","Township":"ရွှေပြည်သာမြို့နယ်","Lat":16.806304,"Long":96.155194},
    {"No":112,"Direction":"DOWN","BusStop_Name":"ကျောင်းလမ်း","Road_Name":"အမှတ်(၄)လမ်း","Township":"ရွှေပြည်သာမြို့နယ်","Lat":16.813547,"Long":96.169637},
    {"No":113,"Direction":"DOWN","BusStop_Name":"စစ်တပ်","Road_Name":"အမှတ်(၄)လမ်း","Township":"ရွှေပြည်သာမြို့နယ်","Lat":16.816722,"Long":96.1301},
    {"No":114,"Direction":"DOWN","BusStop_Name":"ရွှေပြည်သာကွေ့","Road_Name":"အမှတ်(၄)လမ်း","Township":"ရွှေပြည်သာမြို့နယ်","Lat":16.804097,"Long":96.136791},
    {"No":115,"Direction":"DOWN","BusStop_Name":"ဂိတ်ဟောင်း","Road_Name":"အမှတ်(၄)လမ်း","Township":"ရွှေပြည်သာမြို့နယ်","Lat":16.806304,"Long":96.155194},
    {"No":116,"Direction":"DOWN","BusStop_Name":"ရဲတပ်ရင်း(၆)","Road_Name":"အမှတ်(၄)လမ်း","Township":"ရွှေပြည်သာမြို့နယ်","Lat":16.813547,"Long":96.169637},
    {"No":117,"Direction":"DOWN","BusStop_Name":"သံဖြူဆိုင်","Road_Name":"အမှတ်(၄)လမ်း","Township":"ရွှေပြည်သာမြို့နယ်","Lat":16.816722,"Long":96.1301},
    {"No":118,"Direction":"DOWN","BusStop_Name":"အုတ်ဖို","Road_Name":"အမှတ်(၄)လမ်း","Township":"ရွှေပြည်သာမြို့နယ်","Lat":16.804097,"Long":96.136791},
    {"No":119,"Direction":"DOWN","BusStop_Name":"ပုည","Road_Name":"အမှတ်(၄)လမ်း","Township":"ရွှေပြည်သာမြို့နယ်","Lat":16.806304,"Long":96.155194},
    {"No":120,"Direction":"DOWN","BusStop_Name":"ဇေယျာသီရိ","Road_Name":"အမှတ်(၄)လမ်း","Township":"ရွှေပြည်သာမြို့နယ်","Lat":16.813547,"Long":96.169637},
    {"No":121,"Direction":"DOWN","BusStop_Name":"သာဓုကန်","Road_Name":"အမှတ်(၄)လမ်း","Township":"ရွှေပြည်သာမြို့နယ်","Lat":16.816722,"Long":96.1301},
    {"No":122,"Direction":"DOWN","BusStop_Name":"သဘာဝ","Road_Name":"အမှတ်(၄)လမ်း","Township":"ရွှေပြည်သာမြို့နယ်","Lat":16.804097,"Long":96.136791},
    {"No":123,"Direction":"DOWN","BusStop_Name":"နွားခြံ","Road_Name":"အမှတ်(၄)လမ်း","Township":"ရွှေပြည်သာမြို့နယ်","Lat":16.806304,"Long":96.155194},
    {"No":124,"Direction":"DOWN","BusStop_Name":"ကွန်ပျူတာ(ဂိတ်ရင်း)","Road_Name":"အမှတ်(၄)လမ်း","Township":"ရွှေပြည်သာမြို့နယ်","Lat":16.813547,"Long":96.169637}
]